{
  "_meta": {
    "source": "AIP India AD 2, AIRAC 2401",
    "description": "All 127 Indian civil aerodromes with coordinates for zone classification",
    "lastUpdated": "2024-01-25",
    "coordinateSystem": "WGS84"
  },
  "airports": [
    { "icao": "VIDP", "name": "Indira Gandhi International, Delhi",              "lat": 28.5562, "lng": 77.1000, "isMajor": true },
    { "icao": "VABB", "name": "Chhatrapati Shivaji Maharaj Intl, Mumbai",        "lat": 19.0896, "lng": 72.8656, "isMajor": true },
    { "icao": "VOMM", "name": "Chennai International",                           "lat": 12.9941, "lng": 80.1709, "isMajor": true },
    { "icao": "VECC", "name": "Netaji Subhas Chandra Bose Intl, Kolkata",        "lat": 22.6527, "lng": 88.4467, "isMajor": true },
    { "icao": "VOBL", "name": "Kempegowda International, Bengaluru",             "lat": 13.1979, "lng": 77.7063, "isMajor": true },
    { "icao": "VOHY", "name": "Rajiv Gandhi International, Hyderabad",           "lat": 17.2403, "lng": 78.4294, "isMajor": true },

    { "icao": "VAAH", "name": "Sardar Vallabhbhai Patel Intl, Ahmedabad",        "lat": 23.0772, "lng": 72.6347, "isMajor": false },
    { "icao": "VOCL", "name": "Cochin International Airport, Kochi",             "lat": 10.1520, "lng": 76.3919, "isMajor": false },
    { "icao": "VOGP", "name": "Manohar International Airport, Mopa Goa",         "lat": 15.3808, "lng": 73.8314, "isMajor": false },
    { "icao": "VILK", "name": "Chaudhary Charan Singh Intl, Lucknow",           "lat": 26.7606, "lng": 80.8893, "isMajor": false },
    { "icao": "VIAR", "name": "Sri Guru Ram Dass Jee Intl, Amritsar",           "lat": 31.7096, "lng": 74.7972, "isMajor": false },
    { "icao": "VOPB", "name": "Veer Savarkar International, Port Blair",        "lat": 11.6412, "lng": 92.7297, "isMajor": false },
    { "icao": "VEJH", "name": "Jharsuguda Airport (Veer Surendra Sai)",          "lat": 21.9135, "lng": 84.0504, "isMajor": false },
    { "icao": "VABP", "name": "Raja Bhoj Airport, Bhopal",                       "lat": 23.2875, "lng": 77.3374, "isMajor": false },
    { "icao": "VANP", "name": "Dr. Babasaheb Ambedkar Intl, Nagpur",             "lat": 21.0922, "lng": 79.0472, "isMajor": false },
    { "icao": "VIBN", "name": "Lal Bahadur Shastri Intl, Varanasi",             "lat": 25.4522, "lng": 82.8593, "isMajor": false },
    { "icao": "VEPB", "name": "Biju Patnaik International, Bhubaneswar",         "lat": 20.2444, "lng": 85.8178, "isMajor": false },
    { "icao": "VIPT", "name": "Pantnagar Airport",                               "lat": 29.0334, "lng": 79.4737, "isMajor": false },
    { "icao": "VIAG", "name": "Agra Airport (Kheria)",                           "lat": 27.1557, "lng": 77.9609, "isMajor": false },
    { "icao": "VIAL", "name": "Allahabad Airport (Bamrauli)",                    "lat": 25.4401, "lng": 81.7340, "isMajor": false },
    { "icao": "VIBY", "name": "Bareilly Civil Airport",                           "lat": 28.4221, "lng": 79.4513, "isMajor": false },
    { "icao": "VIDX", "name": "Dehradun (Jolly Grant) Airport",                  "lat": 30.1897, "lng": 78.1803, "isMajor": false },
    { "icao": "VIGR", "name": "Gorakhpur Airport",                               "lat": 26.7397, "lng": 83.4497, "isMajor": false },
    { "icao": "VIHR", "name": "Hisar Airport",                                   "lat": 29.1794, "lng": 75.7553, "isMajor": false },
    { "icao": "VIJP", "name": "Jaipur International Airport",                    "lat": 26.8242, "lng": 75.8122, "isMajor": false },
    { "icao": "VIKG", "name": "Kanpur Airport (Chakeri)",                        "lat": 26.4043, "lng": 80.4101, "isMajor": false },
    { "icao": "VIKO", "name": "Kota Airport",                                    "lat": 25.1602, "lng": 75.8456, "isMajor": false },
    { "icao": "VILH", "name": "Kushok Bakula Rimpochee Airport, Leh",            "lat": 34.1359, "lng": 77.5465, "isMajor": false },
    { "icao": "VISP", "name": "Sahnewal Airport, Ludhiana",                      "lat": 30.8547, "lng": 75.9526, "isMajor": false },
    { "icao": "VISM", "name": "Shimla Airport (Jubbarhatti)",                     "lat": 31.0818, "lng": 77.0681, "isMajor": false },
    { "icao": "VIST", "name": "Satna Airport",                                   "lat": 24.5623, "lng": 80.8549, "isMajor": false },
    { "icao": "VIUT", "name": "Udaipur Airport (Dabok)",                          "lat": 24.6177, "lng": 73.8961, "isMajor": false },
    { "icao": "VIJU", "name": "Jammu Airport (Satwari)",                          "lat": 32.6891, "lng": 74.8374, "isMajor": false },
    { "icao": "VISR", "name": "Sheikh ul-Alam Intl, Srinagar",                   "lat": 34.0000, "lng": 74.7942, "isMajor": false },
    { "icao": "VILD", "name": "Saharan Airport, Ludhiana",                       "lat": 30.8500, "lng": 75.9500, "isMajor": false },
    { "icao": "VICG", "name": "Chandigarh Airport",                              "lat": 30.6735, "lng": 76.7885, "isMajor": false },
    { "icao": "VIAX", "name": "Adampur Airport",                                 "lat": 31.4338, "lng": 75.7586, "isMajor": false },
    { "icao": "VIPG", "name": "Pathankot Airport",                               "lat": 32.2337, "lng": 75.6345, "isMajor": false },
    { "icao": "VIPN", "name": "Pithoragarh Airport",                             "lat": 29.5953, "lng": 80.2484, "isMajor": false },
    { "icao": "VIKL", "name": "Kullu-Manali Airport (Bhuntar)",                  "lat": 31.8767, "lng": 77.1544, "isMajor": false },
    { "icao": "VIDN", "name": "Dharamsala (Gaggal) Airport",                     "lat": 32.1653, "lng": 76.2634, "isMajor": false },
    { "icao": "VIGN", "name": "Guna Airport",                                    "lat": 24.6547, "lng": 77.3474, "isMajor": false },

    { "icao": "VAAU", "name": "Aurangabad Airport (Chikkalthana)",               "lat": 19.8627, "lng": 75.3981, "isMajor": false },
    { "icao": "VABJ", "name": "Bhuj Airport (Rudra Mata)",                       "lat": 23.2878, "lng": 69.6702, "isMajor": false },
    { "icao": "VABI", "name": "Bilaspur Airport",                                "lat": 21.9884, "lng": 82.1110, "isMajor": false },
    { "icao": "VADL", "name": "Diu Airport",                                     "lat": 20.7131, "lng": 70.9211, "isMajor": false },
    { "icao": "VAGO", "name": "Goa International Airport (Dabolim)",             "lat": 15.3808, "lng": 73.8314, "isMajor": false },
    { "icao": "VAID", "name": "Indore Airport (Devi Ahilyabai Holkar)",          "lat": 22.7217, "lng": 75.8011, "isMajor": false },
    { "icao": "VAJB", "name": "Jabalpur Airport (Dumna)",                        "lat": 23.1778, "lng": 80.0520, "isMajor": false },
    { "icao": "VAJM", "name": "Jamnagar Airport",                                "lat": 22.4655, "lng": 70.0126, "isMajor": false },
    { "icao": "VAKD", "name": "Kandla Airport",                                  "lat": 23.1127, "lng": 70.1003, "isMajor": false },
    { "icao": "VAKJ", "name": "Khajuraho Airport",                               "lat": 24.8172, "lng": 79.9186, "isMajor": false },
    { "icao": "VAKP", "name": "Kolhapur Airport",                                "lat": 16.6647, "lng": 74.2894, "isMajor": false },
    { "icao": "VAND", "name": "Nanded Airport (Shri Guru Gobind Singh Ji)",      "lat": 19.1833, "lng": 77.3167, "isMajor": false },
    { "icao": "VANR", "name": "Nashik Airport (Ozar)",                           "lat": 20.1191, "lng": 73.9129, "isMajor": false },
    { "icao": "VAPO", "name": "Pune Airport (Lohegaon)",                         "lat": 18.5821, "lng": 73.9197, "isMajor": false },
    { "icao": "VARP", "name": "Raipur Airport (Swami Vivekananda)",              "lat": 21.1804, "lng": 81.7389, "isMajor": false },
    { "icao": "VARK", "name": "Rajkot Airport",                                  "lat": 22.3092, "lng": 70.7795, "isMajor": false },
    { "icao": "VASL", "name": "Solapur Airport",                                 "lat": 17.6280, "lng": 75.9348, "isMajor": false },
    { "icao": "VASU", "name": "Surat Airport",                                   "lat": 21.1141, "lng": 72.7418, "isMajor": false },
    { "icao": "VAVD", "name": "Vadodara Airport",                                "lat": 22.3362, "lng": 73.2264, "isMajor": false },
    { "icao": "VAPR", "name": "Porbandar Airport",                               "lat": 21.6487, "lng": 69.6573, "isMajor": false },

    { "icao": "VOTR", "name": "Tiruchirappalli International",                   "lat": 10.7654, "lng": 78.7097, "isMajor": false },
    { "icao": "VOTV", "name": "Trivandrum International",                        "lat": 8.4821,  "lng": 76.9200, "isMajor": false },
    { "icao": "VOCB", "name": "Coimbatore Airport (Peelamedu)",                  "lat": 11.0300, "lng": 77.0434, "isMajor": false },
    { "icao": "VOMD", "name": "Madurai Airport",                                 "lat": 9.8345,  "lng": 78.0934, "isMajor": false },
    { "icao": "VOML", "name": "Mangaluru International Airport",                 "lat": 12.9613, "lng": 74.8900, "isMajor": false },
    { "icao": "VOMY", "name": "Mysuru Airport (Mandakalli)",                      "lat": 12.2300, "lng": 76.6555, "isMajor": false },
    { "icao": "VOTP", "name": "Tirupati Airport",                                "lat": 13.6325, "lng": 79.5433, "isMajor": false },
    { "icao": "VOVZ", "name": "Visakhapatnam Airport",                           "lat": 17.7212, "lng": 83.2245, "isMajor": false },
    { "icao": "VOBG", "name": "HAL Airport, Bengaluru",                          "lat": 12.9499, "lng": 77.6681, "isMajor": false },
    { "icao": "VOCX", "name": "Calicut International (Karipur)",                 "lat": 11.1368, "lng": 75.9553, "isMajor": false },
    { "icao": "VOPC", "name": "Puducherry Airport",                              "lat": 11.9680, "lng": 79.8128, "isMajor": false },
    { "icao": "VOSM", "name": "Salem Airport",                                   "lat": 11.7834, "lng": 78.0644, "isMajor": false },
    { "icao": "VOTK", "name": "Tuticorin Airport",                               "lat": 8.7242,  "lng": 78.0258, "isMajor": false },
    { "icao": "VORY", "name": "Rajahmundry Airport",                             "lat": 17.1104, "lng": 81.8182, "isMajor": false },
    { "icao": "VOAT", "name": "Agatti Aerodrome, Lakshadweep",                   "lat": 10.8237, "lng": 72.1760, "isMajor": false },
    { "icao": "VOKN", "name": "Kannur International Airport",                    "lat": 11.9191, "lng": 75.5472, "isMajor": false },
    { "icao": "VOSH", "name": "Shimoga Airport (Shivamogga)",                    "lat": 14.0063, "lng": 75.6343, "isMajor": false },
    { "icao": "VOJT", "name": "Jalgaon Airport",                                 "lat": 20.9622, "lng": 75.6259, "isMajor": false },
    { "icao": "VOKU", "name": "Kadapa Airport (Cuddapah)",                       "lat": 14.5100, "lng": 78.7728, "isMajor": false },
    { "icao": "VODK", "name": "Donakonda Airport",                               "lat": 15.8244, "lng": 79.1208, "isMajor": false },
    { "icao": "VONS", "name": "Nagarjuna Sagar Airport",                          "lat": 16.5426, "lng": 79.3192, "isMajor": false },
    { "icao": "VOBK", "name": "Bellary Airport (Jindal)",                        "lat": 15.1627, "lng": 76.8828, "isMajor": false },
    { "icao": "VOKG", "name": "Kalaburagi Airport",                              "lat": 17.5209, "lng": 76.8875, "isMajor": false },
    { "icao": "VEHW", "name": "Hubli Airport (Gokulanagara)",                    "lat": 15.3617, "lng": 75.0849, "isMajor": false },

    { "icao": "VEGK", "name": "Gaya Airport",                                    "lat": 24.7443, "lng": 84.9512, "isMajor": false },
    { "icao": "VEGY", "name": "Guwahati Airport (Lokpriya Gopinath Bordoloi)",   "lat": 26.1061, "lng": 91.5859, "isMajor": false },
    { "icao": "VEBS", "name": "Bagdogra Airport",                                "lat": 26.6812, "lng": 88.3286, "isMajor": false },
    { "icao": "VEBP", "name": "Birsa Munda Airport, Ranchi",                     "lat": 23.3143, "lng": 85.3217, "isMajor": false },
    { "icao": "VEPT", "name": "Jay Prakash Narayan Airport, Patna",              "lat": 25.5913, "lng": 85.0880, "isMajor": false },
    { "icao": "VERC", "name": "Rourkela Airport",                                "lat": 22.2567, "lng": 84.8147, "isMajor": false },
    { "icao": "VEDG", "name": "Durgapur Airport (Kazi Nazrul Islam)",            "lat": 23.6225, "lng": 87.2433, "isMajor": false },
    { "icao": "VEAT", "name": "Agartala Airport (Maharaja Bir Bikram)",          "lat": 23.8870, "lng": 91.2404, "isMajor": false },
    { "icao": "VEAZ", "name": "Aizawl Airport (Lengpui)",                        "lat": 23.8406, "lng": 92.6197, "isMajor": false },
    { "icao": "VEDH", "name": "Dhanbad Airport",                                 "lat": 23.8340, "lng": 86.4253, "isMajor": false },
    { "icao": "VEDI", "name": "Dibrugarh Airport (Mohanbari)",                   "lat": 27.4839, "lng": 95.0169, "isMajor": false },
    { "icao": "VEDB", "name": "Darbhanga Airport",                               "lat": 26.1220, "lng": 85.8997, "isMajor": false },
    { "icao": "VEIM", "name": "Imphal Airport (Tulihal)",                        "lat": 24.7600, "lng": 93.8967, "isMajor": false },
    { "icao": "VEJT", "name": "Jamshedpur Airport (Sonari)",                     "lat": 22.8132, "lng": 86.1685, "isMajor": false },
    { "icao": "VEKR", "name": "Silchar Airport (Kumbhirgram)",                  "lat": 24.9129, "lng": 92.9787, "isMajor": false },
    { "icao": "VELR", "name": "Lilabari Airport, North Lakhimpur",              "lat": 27.2955, "lng": 94.0976, "isMajor": false },
    { "icao": "VEMZ", "name": "Muzaffarpur Airport",                             "lat": 26.1191, "lng": 85.3137, "isMajor": false },
    { "icao": "VERK", "name": "Rupsi Airport, Kokrajhar",                        "lat": 26.1394, "lng": 89.9101, "isMajor": false },
    { "icao": "VETZ", "name": "Tezpur Airport (Salonibari)",                     "lat": 26.7091, "lng": 92.7847, "isMajor": false },
    { "icao": "VEPH", "name": "Shillong Airport (Umroi)",                        "lat": 25.7036, "lng": 91.9787, "isMajor": false },
    { "icao": "VEMN", "name": "Dimapur Airport",                                 "lat": 25.8838, "lng": 93.7711, "isMajor": false },
    { "icao": "VEPY", "name": "Pakyong Airport, Gangtok",                        "lat": 27.2256, "lng": 88.5862, "isMajor": false },
    { "icao": "VEBD", "name": "Burdwan Airport",                                 "lat": 23.2533, "lng": 87.8500, "isMajor": false },
    { "icao": "VEKJ", "name": "Kharagpur Airport",                               "lat": 22.3461, "lng": 87.2833, "isMajor": false },
    { "icao": "VEBO", "name": "Bokaro Airport",                                  "lat": 23.6425, "lng": 86.1489, "isMajor": false },
    { "icao": "VEKO", "name": "Jorhat Airport (Rowriah)",                        "lat": 26.7315, "lng": 94.1755, "isMajor": false },
    { "icao": "VETJ", "name": "Tezu Airport",                                    "lat": 27.9413, "lng": 96.1339, "isMajor": false },
    { "icao": "VEKI", "name": "Kishangarh Airport, Ajmer",                       "lat": 26.5910, "lng": 74.8127, "isMajor": false },
    { "icao": "VEAN", "name": "Along Airport, Arunachal Pradesh",                "lat": 28.1753, "lng": 94.8020, "isMajor": false },
    { "icao": "VEMR", "name": "Cooch Behar Airport",                             "lat": 26.3305, "lng": 89.4672, "isMajor": false },
    { "icao": "VERU", "name": "Pasighat Airport",                                "lat": 28.0661, "lng": 95.3356, "isMajor": false },
    { "icao": "VEZO", "name": "Ziro Airport, Arunachal Pradesh",                 "lat": 27.5884, "lng": 93.8281, "isMajor": false },
    { "icao": "VIBR", "name": "Bhatinda Air Force Station",                      "lat": 30.2701, "lng": 74.7558, "isMajor": false },
    { "icao": "VIBL", "name": "Bakshi Ka Talab (Lucknow)",                       "lat": 26.8882, "lng": 80.8930, "isMajor": false },
    { "icao": "VIBT", "name": "Bhatinda Airport",                                "lat": 30.2701, "lng": 74.7558, "isMajor": false },
    { "icao": "VOTJ", "name": "Thanjavur Air Force Station",                     "lat": 10.7224, "lng": 79.1015, "isMajor": false },
    { "icao": "VOBR", "name": "Bidar Air Force Station",                         "lat": 17.9081, "lng": 77.4871, "isMajor": false },
    { "icao": "VEGT", "name": "Sarsawa (near Saharanpur)",                       "lat": 29.9938, "lng": 77.4255, "isMajor": false },
    { "icao": "VEHK", "name": "Hashimara Air Force Station",                     "lat": 26.6981, "lng": 89.3684, "isMajor": false },
    { "icao": "VIUX", "name": "Udhampur Air Force Station",                      "lat": 32.9160, "lng": 75.1579, "isMajor": false },
    { "icao": "VEPG", "name": "Panagarh Air Force Station",                      "lat": 23.4744, "lng": 87.4275, "isMajor": false }
  ]
}
